---
國立清華大學:
  matches:
  - business_status: OPERATIONAL
    formatted_address: No. 101號, Section 2, Guangfu Rd, East District, Hsinchu City,
      Taiwan 300
    geometry:
      location:
        lat: 24.7961217
        lng: 120.9966699
      viewport:
        northeast:
          lat: 24.7974564302915
          lng: 120.9980069302915
        southwest:
          lat: 24.7947584697085
          lng: 120.9953089697085
    name: National Tsing Hua University
    place_id: ChIJB7ZNzXI2aDQREwR22ltdKxE
    rating: 4.5
巨城:
  matches:
  - business_status: OPERATIONAL
    formatted_address: No. 229號, Zhongyang Rd, East District, Hsinchu City, Taiwan
      30041
    geometry:
      location:
        lat: 24.8098161
        lng: 120.9751319
      viewport:
        northeast:
          lat: 24.8107183802915
          lng: 120.9758804802915
        southwest:
          lat: 24.8080204197085
          lng: 120.9731825197085
    name: Big City
    opening_hours:
      open_now: true
      periods:
      - close:
          day: 0
          time: '2130'
        open:
          day: 0
          time: '1100'
      - close:
          day: 1
          time: '2130'
        open:
          day: 1
          time: '1100'
      - close:
          day: 2
          time: '2130'
        open:
          day: 2
          time: '1100'
      - close:
          day: 3
          time: '2130'
        open:
          day: 3
          time: '1100'
      - close:
          day: 4
          time: '2130'
        open:
          day: 4
          time: '1100'
      - close:
          day: 5
          time: '2200'
        open:
          day: 5
          time: '1100'
      - close:
          day: 6
          time: '2200'
        open:
          day: 6
          time: '1100'
      weekday_text:
      - 'Monday: 11:00 AM – 9:30 PM'
      - 'Tuesday: 11:00 AM – 9:30 PM'
      - 'Wednesday: 11:00 AM – 9:30 PM'
      - 'Thursday: 11:00 AM – 9:30 PM'
      - 'Friday: 11:00 AM – 10:00 PM'
      - 'Saturday: 11:00 AM – 10:00 PM'
      - 'Sunday: 11:00 AM – 9:30 PM'
    place_id: ChIJQyv318Q1aDQRYz_krC4mdb4
    rating: 4.4
新竹動物園:
  matches:
  - business_status: OPERATIONAL
    formatted_address: 300034, Taiwan, Hsinchu City, East District, 食品路66號300
    geometry:
      location:
        lat: 24.8001561
        lng: 120.9799218
      viewport:
        northeast:
          lat: 24.8014352302915
          lng: 120.9812154802915
        southwest:
          lat: 24.7987372697085
          lng: 120.9785175197085
    name: Hsinchu Zoo
    opening_hours:
      open_now: true
      periods:
      - close:
          day: 0
          time: '1700'
        open:
          day: 0
          time: '0900'
      - close:
          day: 2
          time: '1700'
        open:
          day: 2
          time: '0900'
      - close:
          day: 3
          time: '1700'
        open:
          day: 3
          time: '0900'
      - close:
          day: 4
          time: '1700'
        open:
          day: 4
          time: '0900'
      - close:
          day: 5
          time: '1700'
        open:
          day: 5
          time: '0900'
      - close:
          day: 6
          time: '1700'
        open:
          day: 6
          time: '0900'
      weekday_text:
      - 'Monday: Closed'
      - 'Tuesday: 9:00 AM – 5:00 PM'
      - 'Wednesday: 9:00 AM – 5:00 PM'
      - 'Thursday: 9:00 AM – 5:00 PM'
      - 'Friday: 9:00 AM – 5:00 PM'
      - 'Saturday: 9:00 AM – 5:00 PM'
      - 'Sunday: 9:00 AM – 5:00 PM'
    place_id: ChIJl78Wnt01aDQRz1shOsBVUGU
    rating: 4
不要回傳任何東西地方:
  matches: []
